[
  {"name": "Mumbai", "country": "India", "latitude": 19.076, "longitude": 72.8777},
  {"name": "Delhi", "country": "India", "latitude": 28.6139, "longitude": 77.209},
  {"name": "Bengaluru", "country": "India", "latitude": 12.9716, "longitude": 77.5946},
  {"name": "Hyderabad", "country": "India", "latitude": 17.385, "longitude": 78.4867},
  {"name": "Chennai", "country": "India", "latitude": 13.0827, "longitude": 80.2707},
  {"name": "Kolkata", "country": "India", "latitude": 22.5726, "longitude": 88.3639},
  {"name": "Pune", "country": "India", "latitude": 18.5204, "longitude": 73.8567},
  {"name": "Ahmedabad", "country": "India", "latitude": 23.0225, "longitude": 72.5714},
  {"name": "Jaipur", "country": "India", "latitude": 26.9124, "longitude": 75.7873},
  {"name": "Surat", "country": "India", "latitude": 21.1702, "longitude": 72.8311},
  {"name": "Lucknow", "country": "India", "latitude": 26.8467, "longitude": 80.9462},
  {"name": "Nagpur", "country": "India", "latitude": 21.1458, "longitude": 79.0882},
  {"name": "Indore", "country": "India", "latitude": 22.7196, "longitude": 75.8577},
  {"name": "Thane", "country": "India", "latitude": 19.2183, "longitude": 72.9781},
  {"name": "Bhopal", "country": "India", "latitude": 23.2599, "longitude": 77.4126},
  {"name": "Visakhapatnam", "country": "India", "latitude": 17.6868, "longitude": 83.2185},
  {"name": "Pimpri-Chinchwad", "country": "India", "latitude": 18.6274, "longitude": 73.7913},
  {"name": "Patna", "country": "India", "latitude": 25.5941, "longitude": 85.1376},
  {"name": "Vadodara", "country": "India", "latitude": 22.3072, "longitude": 73.1812},
  {"name": "Ghaziabad", "country": "India", "latitude": 28.6692, "longitude": 77.4538},
  {"name": "Ludhiana", "country": "India", "latitude": 30.9010, "longitude": 75.8573},
  {"name": "Agra", "country": "India", "latitude": 27.1767, "longitude": 78.0081},
  {"name": "Nashik", "country": "India", "latitude": 19.9975, "longitude": 73.7898},
  {"name": "Faridabad", "country": "India", "latitude": 28.4089, "longitude": 77.3178},
  {"name": "Meerut", "country": "India", "latitude": 28.9845, "longitude": 77.7064},
  {"name": "Rajkot", "country": "India", "latitude": 22.3039, "longitude": 70.8022},
  {"name": "Kalyan-Bhiwandi", "country": "India", "latitude": 19.2437, "longitude": 73.1325},
  {"name": "Vasai-Virar", "country": "India", "latitude": 19.3585, "longitude": 72.8053},
  {"name": "Varanasi", "country": "India", "latitude": 25.3176, "longitude": 82.9739},
  {"name": "Srinagar", "country": "India", "latitude": 34.0837, "longitude": 74.7973},
  {"name": "Aurangabad", "country": "India", "latitude": 19.8762, "longitude": 75.3438},
  {"name": "Dhanbad", "country": "India", "latitude": 23.7952, "longitude": 86.4304},
  {"name": "Amritsar", "country": "India", "latitude": 31.6340, "longitude": 74.8723},
  {"name": "Navi Mumbai", "country": "India", "latitude": 19.0367, "longitude": 73.1091},
  {"name": "Prayagraj", "country": "India", "latitude": 25.4358, "longitude": 81.8463},
  {"name": "Haora", "country": "India", "latitude": 22.5958, "longitude": 88.2636},
  {"name": "Bengaluru", "country": "India", "latitude": 12.9716, "longitude": 77.5946},
  {"name": "Gurugram", "country": "India", "latitude": 28.4595, "longitude": 77.0266},
  {"name": "Noida", "country": "India", "latitude": 28.5355, "longitude": 77.3910},
  {"name": "Kannur", "country": "India", "latitude": 11.8684, "longitude": 75.3735},
  {"name": "Coimbatore", "country": "India", "latitude": 11.0168, "longitude": 76.9558},
  {"name": "Kochi", "country": "India", "latitude": 9.9312, "longitude": 76.2673},
  {"name": "Nagpur", "country": "India", "latitude": 21.1458, "longitude": 79.0882},
  {"name": "Kishanganj", "country": "India", "latitude": 26.4025, "longitude": 87.9459},
  {"name": "Kollam", "country": "India", "latitude": 8.8901, "longitude": 76.5718}
]
