[ {"name": "Jaipur", "latitude": 26.9124, "longitude": 75.7873, "country": "India"}, {"name": "Jodhpur", "latitude": 26.2389, "longitude": 73.0243, "country": "India"}, {"name": "Udaipur", "latitude": 24.5854, "longitude": 73.7125, "country": "India"}, {"name": "Ajmer", "latitude": 26.4499, "longitude": 74.6399, "country": "India"}, {"name": "Kota", "latitude": 25.2149, "longitude": 75.8578, "country": "India"} ]
